{
  "type": "FeatureCollection",
  "features": [
    {
      "type": "Feature",
      "geometry": {
        "type": "Point",
        "coordinates": [
          2.563264,
          49.010135
        ]
      },
      "properties": {
        "marker-symbol": "building",
        "marker-color": "#14CE21",
        "name": "Aéropole Pépinière d’entreprises",
        "address": "Zone Roissypôle — Bâtiment Aéronef\n5 rue de Copenhague\nB.P. 13918",
        "zipcode": "95731",
        "city": "ROISSY CDG Cedex"
      }
    },
    {
      "type": "Feature",
      "geometry": {
        "type": "Point",
        "coordinates": [
          2.220052,
          48.692235
        ]
      },
      "properties": {
        "marker-symbol": "building",
        "marker-color": "#14CE21",
        "name": "Apis Développement — Pépinière de Courtaboeuf",
        "address": "Parc d'Activités de Courtaboeuf\n10 Avenue du Québec\nBP 116",
        "zipcode": "91944",
        "city": "Courtaboeuf Cedex",
        "website": "http://www.apisdeveloppement.com/"
      }
    },
    {
      "type": "Feature",
      "geometry": {
        "type": "Point",
        "coordinates": [
          2.4483954906463623,
          48.79696301209351
        ]
      },
      "properties": {
        "marker-symbol": "building",
        "marker-color": "#14CE21",
        "name": "Bio & D",
        "description": "Santé et Sciences du vivant.",
        "address": "Centre Commercial Créteil l’Echat\nPlace de l'Europe",
        "zipcode": "94000",
        "city": "Créteil",
        "website": "http://www.plainedopportunites.fr/fr/en-plaine-ebullition/nos-pepinieres-dentreprises/bio-et-d.html"
      }
    },
    {
      "type": "Feature",
      "geometry": {
        "type": "Point",
        "coordinates": [
          2.433193,
          48.893894
        ]
      },
      "properties": {
        "marker-symbol": "building",
        "marker-color": "#14CE21",
        "name": "BIOCITECH",
        "address": "102 route de Noisy",
        "zipcode": "93230",
        "city": "Romainville",
        "website": "http://www.biocitech.com/"
      }
    },
    {
      "type": "Feature",
      "geometry": {
        "type": "Point",
        "coordinates": [
          2.468732,
          48.76597000000001
        ]
      },
      "properties": {
        "marker-symbol": "building",
        "marker-color": "#14CE21",
        "name": "CITEC — Pépinière de Créteil",
        "description": "Activités innovantes et éco-activités.",
        "address": "1 allée des Rochers",
        "zipcode": "94000",
        "city": "Créteil",
        "website": "http://www.plainedopportunites.fr/fr/en-plaine-ebullition/nos-pepinieres-dentreprises/citec.html"
      }
    },
    {
      "type": "Feature",
      "geometry": {
        "type": "Point",
        "coordinates": [
          2.105244,
          49.003295
        ]
      },
      "properties": {
        "marker-symbol": "building",
        "marker-color": "#14CE21",
        "name": "Confluence Entreprises — Pépinière de Conflans",
        "address": "13 rue du Clos d'en Haut",
        "zipcode": "78700",
        "city": "Conflans-Sainte-Honorine",
        "website": "http://depauw.eu/index.php/hebergement/les-pepinieres-d-entreprises"
      }
    },
    {
      "type": "Feature",
      "geometry": {
        "type": "Point",
        "coordinates": [
          2.253037,
          48.821525
        ]
      },
      "properties": {
        "marker-symbol": "building",
        "marker-color": "#14CE21",
        "name": "Cyber Pépinière d'Issy",
        "address": "2 place Jules Gévelot",
        "zipcode": "92130",
        "city": "Issy-les-Moulineaux",
        "website": "http://www.pepiniere-issy.com/"
      }
    },
    {
      "type": "Feature",
      "geometry": {
        "type": "Point",
        "coordinates": [
          2.475502,
          48.875988
        ]
      },
      "properties": {
        "marker-symbol": "building",
        "marker-color": "#14CE21",
        "name": "Espace 22 — Pépinière de Rosny-sous-Bois",
        "address": "ZAC de Nanteuil\n5 rue de Rome",
        "zipcode": "93110",
        "city": "Rosny-sous-Bois",
        "website": "http://www.rosny93.fr/Votre-Espace-22"
      }
    },
    {
      "type": "Feature",
      "geometry": {
        "type": "Point",
        "coordinates": [
          2.113654,
          48.8588
        ]
      },
      "properties": {
        "marker-symbol": "building",
        "marker-color": "#14CE21",
        "name": "Espace Arnold de Ville — Pépinière de Louveciennes",
        "address": "12 rue Georges Blandon",
        "zipcode": "78430",
        "city": "Louveciennes",
        "website": "http://www.pepiniere-adv.com/"
      }
    },
    {
      "type": "Feature",
      "geometry": {
        "type": "Point",
        "coordinates": [
          2.116165,
          48.905693
        ]
      },
      "properties": {
        "marker-symbol": "building",
        "marker-color": "#14CE21",
        "name": "Espace des entrepreneurs — Pépinière de Montesson",
        "address": "5 rue du Chant des Oiseaux",
        "zipcode": "78360",
        "city": "Montesson",
        "website": "http://www.semper.fr/L-Espace-des-entrepreneurs_a82.html"
      }
    },
    {
      "type": "Feature",
      "geometry": {
        "type": "Point",
        "coordinates": [
          2.476688,
          48.741335
        ]
      },
      "properties": {
        "marker-symbol": "building",
        "marker-color": "#14CE21",
        "name": "Espace Descartes — Pépinière de Limeil-Brévannes",
        "address": "22 avenue Descartes",
        "zipcode": "94450",
        "city": "Limeil-Brévannes",
        "website": "http://www.plainedopportunites.fr/fr/en-plaine-ebullition/nos-pepinieres-dentreprises/descartes.html"
      }
    },
    {
      "type": "Feature",
      "geometry": {
        "type": "Point",
        "coordinates": [
          1.6865944862365723,
          48.98762414036218
        ]
      },
      "properties": {
        "marker-symbol": "building",
        "marker-color": "#14CE21",
        "name": "Espace Inneos",
        "address": "1401 avenue de la Grande Halle",
        "zipcode": "78200",
        "city": "Buchelay",
        "website": "http://www.inneos.fr/"
      }
    },
    {
      "type": "Feature",
      "geometry": {
        "type": "Point",
        "coordinates": [
          1.585571,
          48.789817
        ]
      },
      "properties": {
        "marker-symbol": "building",
        "marker-color": "#14CE21",
        "name": "Espace Prévôté — Pépinière de Houdan",
        "address": "6 rue de la Prévôté",
        "zipcode": "78550",
        "city": "Houdan",
        "website": "http://cc-payshoudanais.fr/espace_prevote_accueil.php"
      }
    },
    {
      "type": "Feature",
      "geometry": {
        "type": "Point",
        "coordinates": [
          2.4955111742019653,
          48.95923933029096
        ]
      },
      "properties": {
        "marker-symbol": "building",
        "marker-color": "#14CE21",
        "name": "Hôtel d'activités d'Aulnay-sous-bois",
        "address": "1 à 3 Rue Maryse Bastie - Bâtiments A & B",
        "zipcode": "93600",
        "city": "Aulnay-sous-bois",
        "website": "http://www.semad-93.com/index.php/locaux/l-hotel-d-activites"
      }
    },
    {
      "type": "Feature",
      "geometry": {
        "type": "Point",
        "coordinates": [
          2.231270670890808,
          48.986395558213275
        ]
      },
      "properties": {
        "marker-symbol": "building",
        "marker-color": "#14CE21",
        "name": "Hôtel d'entreprises de Franconville",
        "address": "38 rue de la station",
        "zipcode": "95130",
        "city": "Franconville",
        "website": "http://www.accet.asso.fr/v1/nos-sites/hotels-d-entreprise/franconville.html"
      }
    },
    {
      "type": "Feature",
      "geometry": {
        "type": "Point",
        "coordinates": [
          2.43569,
          48.632604
        ]
      },
      "properties": {
        "marker-symbol": "building",
        "marker-color": "#14CE21",
        "name": "Le Magellan — Évry",
        "description": "Pépinière et hôtel d'entreprises de l'agglomération Évry Centre Essonne.",
        "address": "7 rue Montespan",
        "zipcode": "91024",
        "city": "Évry Cedex",
        "website": "http://www.lemagellan.com/"
      }
    },
    {
      "type": "Feature",
      "geometry": {
        "type": "Point",
        "coordinates": [
          2.375233,
          48.892166
        ]
      },
      "properties": {
        "marker-symbol": "building",
        "marker-color": "#14CE21",
        "name": "LUTESS",
        "description": "Un pôle dédié aux structures de l’économie sociale et solidaire.",
        "address": "204 rue de Crimée",
        "zipcode": "75019",
        "city": "Paris",
        "website": "http://www.paris.fr/pro/entrepreneurs/economie-sociale-et-solidaire/lutess-un-pole-dedie-aux-structures-de-l-ess-du-204-rue-de-crimee/rub_10368_stand_136821_port_26273"
      }
    },
    {
      "type": "Feature",
      "geometry": {
        "type": "Point",
        "coordinates": [
          2.0761638879776,
          49.01618981144212
        ]
      },
      "properties": {
        "marker-symbol": "building",
        "marker-color": "#14CE21",
        "name": "Neuvitec 95 — Cergy-Pontoise",
        "description": "Incubateur et pépinière d’entreprises innovantes.",
        "address": "1 mail Gay Lussac",
        "zipcode": "95450",
        "city": "Neuville-sur-Oise",
        "website": "http://www.accet.asso.fr/v1/nos-sites/pepinieres-d-entreprises/neuvitec-95.html"
      }
    },
    {
      "type": "Feature",
      "geometry": {
        "type": "Point",
        "coordinates": [
          2.34497,
          48.870454
        ]
      },
      "properties": {
        "marker-symbol": "building",
        "marker-color": "#14CE21",
        "name": "Paris Incubateurs Finance",
        "address": "5 rue d'Uzès",
        "zipcode": "75002",
        "city": "Paris",
        "website": "http://www.finance-innovation.org/pepiniere.htm"
      }
    },
    {
      "type": "Feature",
      "geometry": {
        "type": "Point",
        "coordinates": [
          2.383191,
          48.827446
        ]
      },
      "properties": {
        "marker-symbol": "building",
        "marker-color": "#14CE21",
        "name": "Paris Innovation Biopark",
        "address": "10 rue Jean Antoine de Baïf",
        "zipcode": "75013",
        "city": "Paris",
        "website": "http://www.paris.fr/pro/2d3es-hebergement-d-entreprises/poles-d-entreprises/rub_9529_stand_22927_port_23414"
      }
    },
    {
      "type": "Feature",
      "geometry": {
        "type": "Point",
        "coordinates": [
          2.379688,
          48.849769
        ]
      },
      "properties": {
        "marker-symbol": "building",
        "marker-color": "#14CE21",
        "name": "Paris Innovation Brûlon-Cîteaux",
        "address": "37 rue de Cîteaux",
        "zipcode": "75012",
        "city": "Paris",
        "website": "http://www.paris.fr/pro/2d3es-hebergement-d-entreprises/poles-d-entreprises/rub_9529_stand_22927_port_23414"
      }
    },
    {
      "type": "Feature",
      "geometry": {
        "type": "Point",
        "coordinates": [
          2.3104790000000004,
          48.830144
        ]
      },
      "properties": {
        "marker-symbol": "building",
        "marker-color": "#14CE21",
        "name": "Paris Innovation Losserand",
        "address": "168-170 rue Raymond Losserand",
        "zipcode": "75014",
        "city": "Paris",
        "website": "http://www.paris.fr/pro/2d3es-hebergement-d-entreprises/poles-d-entreprises/rub_9529_stand_22927_port_23414"
      }
    },
    {
      "type": "Feature",
      "geometry": {
        "type": "Point",
        "coordinates": [
          2.383615,
          48.825203
        ]
      },
      "properties": {
        "marker-symbol": "building",
        "marker-color": "#14CE21",
        "name": "Paris Innovation Masséna",
        "address": "Immeuble Berlier\n15 rue Jean-Baptiste Berlier",
        "zipcode": "75013",
        "city": "Paris",
        "website": "http://incubateurs.parisandco.com/sites_incubateur/get_site/27"
      }
    },
    {
      "type": "Feature",
      "geometry": {
        "type": "Point",
        "coordinates": [
          2.403534,
          48.854835
        ]
      },
      "properties": {
        "marker-symbol": "building",
        "marker-color": "#14CE21",
        "name": "Paris Innovation Réunion",
        "address": "80 rue des Haies",
        "zipcode": "75020",
        "city": "Paris",
        "website": "http://incubateurs.parisandco.com/sites_incubateur/get_site/26"
      }
    },
    {
      "type": "Feature",
      "geometry": {
        "type": "Point",
        "coordinates": [
          2.353056,
          48.895073
        ]
      },
      "properties": {
        "marker-symbol": "building",
        "marker-color": "#14CE21",
        "name": "Paris Région Innovation Nord Express",
        "address": "110-122 rue des Poissonniers",
        "zipcode": "75018",
        "city": "Paris",
        "website": "http://incubateurs.parisandco.com/sites_incubateur/get_site/30"
      }
    },
    {
      "type": "Feature",
      "geometry": {
        "type": "Point",
        "coordinates": [
          2.373095154762268,
          48.858588173972194
        ]
      },
      "properties": {
        "marker-symbol": "building",
        "marker-color": "#14CE21",
        "name": "Pépinière 27",
        "address": "27-28 rue du Chemin Vert",
        "zipcode": "75011",
        "city": "Paris",
        "website": "http://www.pepiniere27.fr/"
      }
    },
    {
      "type": "Feature",
      "geometry": {
        "type": "Point",
        "coordinates": [
          2.436186,
          48.864214
        ]
      },
      "properties": {
        "marker-symbol": "building",
        "marker-color": "#14CE21",
        "name": "Pépinière Atrium — Montreuil",
        "address": "104-112 avenue de la Résistance",
        "zipcode": "93100",
        "city": "Montreuil",
        "website": "http://www.pepiniereatrium.fr/"
      }
    },
    {
      "type": "Feature",
      "geometry": {
        "type": "Point",
        "coordinates": [
          2.490975,
          48.95326300000001
        ]
      },
      "properties": {
        "marker-symbol": "building",
        "marker-color": "#14CE21",
        "name": "Pépinière d'Aulnay-sous-Bois",
        "address": "Maison de l'Entreprise et de l'Emploi\n1 rue Auguste Renoir",
        "zipcode": "93600",
        "city": "Aulnay-sous-Bois",
        "website": "http://www.semad-93.com/index.php/locaux/la-pepiniere"
      }
    },
    {
      "type": "Feature",
      "geometry": {
        "type": "Point",
        "coordinates": [
          2.258682,
          48.822509
        ]
      },
      "properties": {
        "marker-symbol": "building",
        "marker-color": "#14CE21",
        "name": "Pépinière d'Issy",
        "address": "215 rue Jean-Jacques Rousseau",
        "zipcode": "92130",
        "city": "Issy-les-Moulineaux",
        "website": "http://www.pepiniere-issy.com/"
      }
    },
    {
      "type": "Feature",
      "geometry": {
        "type": "Point",
        "coordinates": [
          2.17586,
          48.710176
        ]
      },
      "properties": {
        "marker-symbol": "building",
        "marker-color": "#14CE21",
        "name": "Pépinière d'Orsay",
        "address": "2 rue Jean Rostand\nParc Orsay Université",
        "zipcode": "91400",
        "city": "Orsay",
        "website": "http://www.caps.fr/innover-entreprendre/developpement-economique/les-pepinieres-dentreprises/pepiniere-dorsay/"
      }
    },
    {
      "type": "Feature",
      "geometry": {
        "type": "Point",
        "coordinates": [
          2.078583,
          49.035498
        ]
      },
      "properties": {
        "marker-symbol": "building",
        "marker-color": "#14CE21",
        "name": "Pépinière de Cergy-Préfecture",
        "address": "4 place de la Pergola",
        "zipcode": "95000",
        "city": "Cergy Préfecture",
        "website": "http://www.accet.asso.fr/v1/nos-sites/pepinieres-d-entreprises/cergy-prefecture.html"
      }
    },
    {
      "type": "Feature",
      "geometry": {
        "type": "Point",
        "coordinates": [
          2.6872140169143677,
          48.40610461983918
        ]
      },
      "properties": {
        "marker-symbol": "building",
        "marker-color": "#14CE21",
        "name": "Pépinière de Fontainebleau",
        "address": "3 rue Paul Tavernier",
        "zipcode": "77300",
        "city": "Fontainebleau",
        "website": "http://www.fontainebleau-entreprises.fr/"
      }
    },
    {
      "type": "Feature",
      "geometry": {
        "type": "Point",
        "coordinates": [
          2.101448,
          48.701664
        ]
      },
      "properties": {
        "marker-symbol": "building",
        "marker-color": "#14CE21",
        "name": "Pépinière de Gif-sur-Yvette",
        "address": "2 route de la Noue\nBP 76",
        "zipcode": "91193",
        "city": "Gif-sur-Yvette Cedex",
        "website": "http://www.caps.fr/innover-entreprendre/developpement-economique/les-pepinieres-dentreprises/la-pepiniere-de-gif-sur-yvette/"
      }
    },
    {
      "type": "Feature",
      "geometry": {
        "type": "Point",
        "coordinates": [
          2.332271933555603,
          48.95758736572339
        ]
      },
      "properties": {
        "marker-symbol": "building",
        "marker-color": "#14CE21",
        "name": "Pépinière de la CAVAM — Montmagny",
        "address": "26 rue des sablons",
        "zipcode": "95360",
        "city": "Montmagny",
        "website": "http://www.accet.asso.fr/v1/nos-sites/pepinieres-d-entreprises/cavam.html"
      }
    },
    {
      "type": "Feature",
      "geometry": {
        "type": "Point",
        "coordinates": [
          2.378261,
          48.927448
        ]
      },
      "properties": {
        "marker-symbol": "building",
        "marker-color": "#14CE21",
        "name": "Pépinière de La Courneuve",
        "address": "1 centre commercial La Tour",
        "zipcode": "93120",
        "city": "La Courneuve",
        "website": "http://pepiniere-la-courneuve.com/"
      }
    },
    {
      "type": "Feature",
      "geometry": {
        "type": "Point",
        "coordinates": [
          2.585928,
          48.837316
        ]
      },
      "properties": {
        "marker-symbol": "building",
        "marker-color": "#14CE21",
        "name": "Pépinière de Marne-la-Vallée",
        "description": "Pépinière d'Entreprises Innovantes",
        "address": "Cité Descartes\n1 rue Albert Einstein",
        "zipcode": "77437",
        "city": "Champs sur Marne",
        "website": "http://www.seineetmarne.cci.fr/creation/sinstaller-en-pepiniere"
      }
    },
    {
      "type": "Feature",
      "geometry": {
        "type": "Point",
        "coordinates": [
          2.260066,
          48.719838
        ]
      },
      "properties": {
        "marker-symbol": "building",
        "marker-color": "#14CE21",
        "name": "Pépinière de Palaiseau",
        "address": "7 rue de la Croix Martre",
        "zipcode": "91873",
        "city": "Palaiseau",
        "website": "http://www.caps.fr/innover-entreprendre/developpement-economique/les-pepinieres-dentreprises/pepiniere-palaiseau/"
      }
    },
    {
      "type": "Feature",
      "geometry": {
        "type": "Point",
        "coordinates": [
          2.368062,
          48.924878
        ]
      },
      "properties": {
        "marker-symbol": "building",
        "marker-color": "#14CE21",
        "name": "Pépinière de Saint-Denis",
        "address": "Espace entreprises Bel-Air\n113-115 rue Danielle Casanova",
        "zipcode": "93200",
        "city": "Saint-Denis",
        "website": "http://www.pepiniere-saint-denis.org/"
      }
    },
    {
      "type": "Feature",
      "geometry": {
        "type": "Point",
        "coordinates": [
          2.4776210000000005,
          48.790058
        ]
      },
      "properties": {
        "marker-symbol": "building",
        "marker-color": "#14CE21",
        "name": "Pépinière de Saint-Maur",
        "address": "Centre d’activités d’Arromanches\n27-31 avenue du Port au Fouarre",
        "zipcode": "94100",
        "city": "Saint-Maur-des-Fossés",
        "website": "http://www.saint-maur.com/La-pepiniere-de-Saint-Maur-des"
      }
    },
    {
      "type": "Feature",
      "geometry": {
        "type": "Point",
        "coordinates": [
          2.263238,
          48.972494
        ]
      },
      "properties": {
        "marker-symbol": "building",
        "marker-color": "#14CE21",
        "name": "Pépinière de Sannois",
        "address": "2 esplanade de la Gare",
        "zipcode": "95110",
        "city": "Sannois",
        "website": "http://www.accet.asso.fr/v1/nos-sites/pepinieres-d-entreprises/sannois.html"
      }
    },
    {
      "type": "Feature",
      "geometry": {
        "type": "Point",
        "coordinates": [
          2.568698,
          48.623977
        ]
      },
      "properties": {
        "marker-symbol": "building",
        "marker-color": "#14CE21",
        "name": "Pépinière de Sénart",
        "address": "Bâtiment « Le Sextant »\n462 rue Benjamin Delessert — BP 83",
        "zipcode": "77552",
        "city": "Moissy-Cramayel Cedex",
        "website": "http://www.entreprendre-senart.com/"
      }
    },
    {
      "type": "Feature",
      "geometry": {
        "type": "Point",
        "coordinates": [
          2.2247314453125,
          48.87041717880288
        ]
      },
      "properties": {
        "marker-symbol": "building",
        "marker-color": "#14CE21",
        "name": "Pépinière de Suresnes",
        "address": "26 avenue Charles de Gaulle",
        "zipcode": "92150",
        "city": "Suresnes",
        "website": "http://www.suresneseco.com/"
      }
    },
    {
      "type": "Feature",
      "geometry": {
        "type": "Point",
        "coordinates": [
          2.326489,
          48.926466
        ]
      },
      "properties": {
        "marker-symbol": "building",
        "marker-color": "#14CE21",
        "name": "Pépinière de Villeneuve-la-Garenne",
        "address": "11 avenue Marc Sangnier",
        "zipcode": "92390",
        "city": "Villeneuve-la-Garenne",
        "website": "http://www.pep-entreprises-vlg92.fr/"
      }
    },
    {
      "type": "Feature",
      "geometry": {
        "type": "Point",
        "coordinates": [
          2.386853,
          48.6745
        ]
      },
      "properties": {
        "marker-symbol": "building",
        "marker-color": "#14CE21",
        "name": "Pépinière de Viry-Châtillon",
        "address": "31 avenue du Général de Gaulle",
        "zipcode": "91170",
        "city": "Viry-Châtillon",
        "website": "http://www.viry-chatillon.fr/fr/index.php/vivre-a-viry/economie/vie-economique/hotels-et-pepinieres-d-entreprise"
      }
    },
    {
      "type": "Feature",
      "geometry": {
        "type": "Point",
        "coordinates": [
          2.328228,
          48.750943
        ]
      },
      "properties": {
        "marker-symbol": "building",
        "marker-color": "#14CE21",
        "name": "Pépinière du Val de Bièvre",
        "address": "Z.A. La Cerisaie Sud\n35 chemin de Montjean",
        "zipcode": "94260",
        "city": "Fresnes",
        "website": "http://www.agglo-valdebievre.fr/article/archive/336/"
      }
    },
    {
      "type": "Feature",
      "geometry": {
        "type": "Point",
        "coordinates": [
          2.32967,
          48.818203
        ]
      },
      "properties": {
        "marker-symbol": "building",
        "marker-color": "#14CE21",
        "name": "Pépinière et hôtel d'activités de Montrouge",
        "address": "2A rue Danton",
        "zipcode": "92120",
        "city": "Montrouge",
        "website": "http://www.pepiniere-hotelactivites-montrouge.com/"
      }
    },
    {
      "type": "Feature",
      "geometry": {
        "type": "Point",
        "coordinates": [
          2.453363,
          48.619406
        ]
      },
      "properties": {
        "marker-symbol": "building",
        "marker-color": "#14CE21",
        "name": "Pépinière Genopole Entreprises",
        "address": "4 rue Pierre Fontaine",
        "zipcode": "91000",
        "city": "Évry",
        "website": "http://www.genopole.fr/html/fr/entreprendre/pepinieres.htm"
      }
    },
    {
      "type": "Feature",
      "geometry": {
        "type": "Point",
        "coordinates": [
          1.9170390000000002,
          48.976316000000004
        ]
      },
      "properties": {
        "marker-symbol": "building",
        "marker-color": "#14CE21",
        "name": "Pépinière Isaac Newton — Les Mureaux",
        "address": "2 rue Louis Blériot",
        "zipcode": "78130",
        "city": "Les Mureaux",
        "website": "http://www.lesmureaux.fr/index.php/S_implanter,%20se%20développer?idpage=10023&idmetacontenu=83112"
      }
    },
    {
      "type": "Feature",
      "geometry": {
        "type": "Point",
        "coordinates": [
          2.3129144310951233,
          48.87331224761206
        ]
      },
      "properties": {
        "marker-symbol": "building",
        "marker-color": "#14CE21",
        "name": "Pépinière la Boétie",
        "address": "55 rue la Boétie",
        "zipcode": "75008",
        "city": "Paris",
        "website": "http://www.levillagebyca.com/la-pepiniere-la-boetie"
      }
    },
    {
      "type": "Feature",
      "geometry": {
        "type": "Point",
        "coordinates": [
          2.363875,
          48.8698
        ]
      },
      "properties": {
        "marker-symbol": "building",
        "marker-color": "#14CE21",
        "name": "Pépinière Paris République",
        "address": "18 rue Yves Toudic",
        "zipcode": "75010",
        "city": "Paris",
        "website": "http://www.entreprises.cci-paris-idf.fr/web/hebergement-d-entreprises/paris-10eme"
      }
    },
    {
      "type": "Feature",
      "geometry": {
        "type": "Point",
        "coordinates": [
          2.34137,
          48.837609
        ]
      },
      "properties": {
        "marker-symbol": "building",
        "marker-color": "#14CE21",
        "name": "Pépinière Paris Santé Cochin",
        "address": "27 rue du Faubourg Saint-Jacques",
        "zipcode": "75014",
        "city": "Paris",
        "website": "http://www.parisbiotechsante.org/"
      }
    },
    {
      "type": "Feature",
      "geometry": {
        "type": "Point",
        "coordinates": [
          2.391753,
          48.865631
        ]
      },
      "properties": {
        "marker-symbol": "building",
        "marker-color": "#14CE21",
        "name": "Pépinière Paris Soleillet",
        "address": "14 rue Soleillet",
        "zipcode": "75020",
        "city": "Paris",
        "website": "http://www.entreprises.cci-paris-idf.fr/web/hebergement-d-entreprises/paris-20eme"
      }
    },
    {
      "type": "Feature",
      "geometry": {
        "type": "Point",
        "coordinates": [
          2.225358,
          49.00017
        ]
      },
      "properties": {
        "marker-symbol": "building",
        "marker-color": "#14CE21",
        "name": "Pépinière Val & Forêt — Le Plessis-Bouchard",
        "address": "156 chaussée Jules César",
        "zipcode": "95310",
        "city": "Le Plessis-Bouchard",
        "website": "http://www.accet.asso.fr/v1/nos-sites/pepinieres-d-entreprises/val-foret.html"
      }
    },
    {
      "type": "Feature",
      "geometry": {
        "type": "Point",
        "coordinates": [
          2.162106,
          48.804244
        ]
      },
      "properties": {
        "marker-symbol": "building",
        "marker-color": "#14CE21",
        "name": "Pépinière Versailles Grand Parc",
        "address": "2 place de Touraine",
        "zipcode": "78000",
        "city": "Versailles",
        "website": "http://www.pepiniere.versaillesgrandparc.fr"
      }
    },
    {
      "type": "Feature",
      "geometry": {
        "type": "Point",
        "coordinates": [
          2.207158,
          48.713983
        ]
      },
      "properties": {
        "marker-symbol": "building",
        "marker-color": "#14CE21",
        "name": "Pépinière X-Technologies",
        "address": "X-Technologies\nÉcole Polytechnique ParisTech",
        "zipcode": "91128",
        "city": "Palaiseau Cedex",
        "website": "http://www.xtec.polytechnique.fr/"
      }
    },
    {
      "type": "Feature",
      "geometry": {
        "type": "Point",
        "coordinates": [
          2.064282,
          48.947181
        ]
      },
      "properties": {
        "marker-symbol": "building",
        "marker-color": "#14CE21",
        "name": "Pépinières Espace Cristal & Espace Média",
        "address": "22 rue Gustave Eiffel — Technoparc",
        "zipcode": "78300",
        "city": "Poissy",
        "website": "http://www.technoparc-poissy.com/"
      }
    },
    {
      "type": "Feature",
      "geometry": {
        "type": "Point",
        "coordinates": [
          1.98528528213501,
          48.77869752853927
        ]
      },
      "properties": {
        "marker-symbol": "building",
        "marker-color": "#14CE21",
        "name": "Promopole Merisiers Trappes-en-Yvelines",
        "address": "Rue Eugène Pottier",
        "zipcode": "78190",
        "city": "Trappes",
        "website": "http://www.promopole.fr/"
      }
    },
    {
      "type": "Feature",
      "geometry": {
        "type": "Point",
        "coordinates": [
          2.016198,
          48.775651
        ]
      },
      "properties": {
        "marker-symbol": "building",
        "marker-color": "#14CE21",
        "name": "Promopole Montigny-le-Bretonneux",
        "address": "12 avenue des Prés",
        "zipcode": "78180",
        "city": "Montigny-le-Bretonneux",
        "website": "http://www.promopole.fr/"
      }
    },
    {
      "type": "Feature",
      "geometry": {
        "type": "Point",
        "coordinates": [
          2.26845,
          48.936103
        ]
      },
      "properties": {
        "marker-symbol": "building",
        "marker-color": "#14CE21",
        "name": "Quai des entrepreneurs — Port de Paris-Gennevilliers",
        "description": "Pépinière d’Entreprises du Port de Paris-Gennevilliers.",
        "address": "60 route Principale du Port",
        "zipcode": "92230",
        "city": "Gennevilliers",
        "website": "http://www.quai-des-entrepreneurs.com/"
      }
    },
    {
      "type": "Feature",
      "geometry": {
        "type": "Point",
        "coordinates": [
          2.3936837911605835,
          48.81533488442299
        ]
      },
      "properties": {
        "marker-symbol": "building",
        "marker-color": "#14CE21",
        "name": "Silver Innov’ Plateforme Charles Foix Seine-Amont",
        "address": "54 rue Molière",
        "zipcode": "94200",
        "city": "Ivry-sur-Seine"
      }
    }
  ]
}